{
  "version": 1,
  "updatedAt": "2026-07-23T13:00:54.386Z",
  "totalVisits": 110,
  "countries": [
    {
      "key": "BT",
      "label": "BT",
      "country": "BT",
      "count": 55,
      "firstSeenAt": "2026-06-23T01:34:00.955Z",
      "lastSeenAt": "2026-07-23T13:00:54.386Z"
    },
    {
      "key": "IN",
      "label": "IN",
      "country": "IN",
      "count": 28,
      "firstSeenAt": "2026-06-23T05:03:11.022Z",
      "lastSeenAt": "2026-07-20T16:29:44.898Z"
    },
    {
      "key": "JP",
      "label": "JP",
      "country": "JP",
      "count": 7,
      "firstSeenAt": "2026-07-04T10:19:44.593Z",
      "lastSeenAt": "2026-07-09T03:04:46.368Z"
    },
    {
      "key": "SG",
      "label": "SG",
      "country": "SG",
      "count": 7,
      "firstSeenAt": "2026-06-23T17:25:37.923Z",
      "lastSeenAt": "2026-07-22T01:29:13.573Z"
    },
    {
      "key": "NP",
      "label": "NP",
      "country": "NP",
      "count": 3,
      "firstSeenAt": "2026-07-03T11:11:10.321Z",
      "lastSeenAt": "2026-07-03T12:53:31.473Z"
    },
    {
      "key": "MY",
      "label": "MY",
      "country": "MY",
      "count": 2,
      "firstSeenAt": "2026-06-27T13:25:26.670Z",
      "lastSeenAt": "2026-06-28T18:28:10.984Z"
    },
    {
      "key": "AU",
      "label": "AU",
      "country": "AU",
      "count": 2,
      "firstSeenAt": "2026-07-06T23:45:18.846Z",
      "lastSeenAt": "2026-07-09T00:27:43.260Z"
    },
    {
      "key": "US",
      "label": "US",
      "country": "US",
      "count": 2,
      "firstSeenAt": "2026-07-16T03:42:47.379Z",
      "lastSeenAt": "2026-07-21T01:57:55.825Z"
    },
    {
      "key": "SE",
      "label": "SE",
      "country": "SE",
      "count": 1,
      "firstSeenAt": "2026-06-23T18:49:41.127Z",
      "lastSeenAt": "2026-06-23T18:49:41.127Z"
    },
    {
      "key": "HK",
      "label": "HK",
      "country": "HK",
      "count": 1,
      "firstSeenAt": "2026-06-30T03:41:36.187Z",
      "lastSeenAt": "2026-06-30T03:41:36.187Z"
    },
    {
      "key": "TH",
      "label": "TH",
      "country": "TH",
      "count": 1,
      "firstSeenAt": "2026-07-20T18:36:57.671Z",
      "lastSeenAt": "2026-07-20T18:36:57.671Z"
    },
    {
      "key": "IE",
      "label": "IE",
      "country": "IE",
      "count": 1,
      "firstSeenAt": "2026-07-22T02:13:04.992Z",
      "lastSeenAt": "2026-07-22T02:13:04.992Z"
    }
  ],
  "cities": [
    {
      "key": "Thimphu, Thimphu District, BT",
      "label": "Thimphu, Thimphu District, BT",
      "city": "Thimphu",
      "region": "Thimphu District",
      "country": "BT",
      "latitude": "27.466",
      "longitude": "89.642",
      "count": 47,
      "firstSeenAt": "2026-06-23T01:34:00.955Z",
      "lastSeenAt": "2026-07-23T13:00:54.386Z"
    },
    {
      "key": "Siliguri, West Bengal, IN",
      "label": "Siliguri, West Bengal, IN",
      "city": "Siliguri",
      "region": "West Bengal",
      "country": "IN",
      "latitude": "26.710",
      "longitude": "88.429",
      "count": 9,
      "firstSeenAt": "2026-06-23T05:10:53.647Z",
      "lastSeenAt": "2026-07-18T17:28:40.571Z"
    },
    {
      "key": "Phuntsholing, Chukha, BT",
      "label": "Phuntsholing, Chukha, BT",
      "city": "Phuntsholing",
      "region": "Chukha",
      "country": "BT",
      "latitude": "26.852",
      "longitude": "89.388",
      "count": 7,
      "firstSeenAt": "2026-06-24T14:41:27.830Z",
      "lastSeenAt": "2026-07-08T03:34:07.131Z"
    },
    {
      "key": "Singapore, SG",
      "label": "Singapore, SG",
      "city": "Singapore",
      "region": "",
      "country": "SG",
      "latitude": "1.290",
      "longitude": "103.850",
      "count": 7,
      "firstSeenAt": "2026-06-23T17:25:37.923Z",
      "lastSeenAt": "2026-07-22T01:29:13.573Z"
    },
    {
      "key": "Kyoto, Kyoto, JP",
      "label": "Kyoto, Kyoto, JP",
      "city": "Kyoto",
      "region": "Kyoto",
      "country": "JP",
      "latitude": "35.021",
      "longitude": "135.754",
      "count": 5,
      "firstSeenAt": "2026-07-04T10:19:44.593Z",
      "lastSeenAt": "2026-07-05T01:01:18.650Z"
    },
    {
      "key": "Mumbai, Maharashtra, IN",
      "label": "Mumbai, Maharashtra, IN",
      "city": "Mumbai",
      "region": "Maharashtra",
      "country": "IN",
      "latitude": "19.073",
      "longitude": "72.883",
      "count": 4,
      "firstSeenAt": "2026-07-20T16:25:56.732Z",
      "lastSeenAt": "2026-07-20T16:29:44.898Z"
    },
    {
      "key": "Bhadrapur, Koshi, NP",
      "label": "Bhadrapur, Koshi, NP",
      "city": "Bhadrapur",
      "region": "Koshi",
      "country": "NP",
      "latitude": "26.544",
      "longitude": "88.094",
      "count": 3,
      "firstSeenAt": "2026-07-03T11:11:10.321Z",
      "lastSeenAt": "2026-07-03T12:53:31.473Z"
    },
    {
      "key": "Kolkata, West Bengal, IN",
      "label": "Kolkata, West Bengal, IN",
      "city": "Kolkata",
      "region": "West Bengal",
      "country": "IN",
      "latitude": "22.563",
      "longitude": "88.363",
      "count": 3,
      "firstSeenAt": "2026-06-24T09:33:09.115Z",
      "lastSeenAt": "2026-07-08T09:35:34.529Z"
    },
    {
      "key": "Guwahati, Assam, IN",
      "label": "Guwahati, Assam, IN",
      "city": "Guwahati",
      "region": "Assam",
      "country": "IN",
      "latitude": "26.184",
      "longitude": "91.746",
      "count": 2,
      "firstSeenAt": "2026-06-23T05:03:11.022Z",
      "lastSeenAt": "2026-06-23T05:36:24.975Z"
    },
    {
      "key": "Hyderabad, Telangana, IN",
      "label": "Hyderabad, Telangana, IN",
      "city": "Hyderabad",
      "region": "Telangana",
      "country": "IN",
      "latitude": "17.384",
      "longitude": "78.456",
      "count": 2,
      "firstSeenAt": "2026-06-23T12:55:00.057Z",
      "lastSeenAt": "2026-06-23T13:30:04.286Z"
    },
    {
      "key": "Ahmedabad, Gujarat, IN",
      "label": "Ahmedabad, Gujarat, IN",
      "city": "Ahmedabad",
      "region": "Gujarat",
      "country": "IN",
      "latitude": "23.026",
      "longitude": "72.587",
      "count": 2,
      "firstSeenAt": "2026-07-05T06:53:29.625Z",
      "lastSeenAt": "2026-07-07T08:19:18.946Z"
    },
    {
      "key": "Brisbane, Queensland, AU",
      "label": "Brisbane, Queensland, AU",
      "city": "Brisbane",
      "region": "Queensland",
      "country": "AU",
      "latitude": "-27.468",
      "longitude": "153.028",
      "count": 2,
      "firstSeenAt": "2026-07-06T23:45:18.846Z",
      "lastSeenAt": "2026-07-09T00:27:43.260Z"
    },
    {
      "key": "Los Angeles, California, US",
      "label": "Los Angeles, California, US",
      "city": "Los Angeles",
      "region": "California",
      "country": "US",
      "latitude": "34.052",
      "longitude": "-118.244",
      "count": 2,
      "firstSeenAt": "2026-07-16T03:42:47.379Z",
      "lastSeenAt": "2026-07-21T01:57:55.825Z"
    },
    {
      "key": "Luleå, Norrbotten, SE",
      "label": "Luleå, Norrbotten, SE",
      "city": "Luleå",
      "region": "Norrbotten",
      "country": "SE",
      "latitude": "65.584",
      "longitude": "22.155",
      "count": 1,
      "firstSeenAt": "2026-06-23T18:49:41.127Z",
      "lastSeenAt": "2026-06-23T18:49:41.127Z"
    },
    {
      "key": "Tinsukia, Assam, IN",
      "label": "Tinsukia, Assam, IN",
      "city": "Tinsukia",
      "region": "Assam",
      "country": "IN",
      "latitude": "27.489",
      "longitude": "95.360",
      "count": 1,
      "firstSeenAt": "2026-06-25T10:03:36.982Z",
      "lastSeenAt": "2026-06-25T10:03:36.982Z"
    },
    {
      "key": "Kadapa, Andhra Pradesh, IN",
      "label": "Kadapa, Andhra Pradesh, IN",
      "city": "Kadapa",
      "region": "Andhra Pradesh",
      "country": "IN",
      "latitude": "14.480",
      "longitude": "78.823",
      "count": 1,
      "firstSeenAt": "2026-06-25T12:29:53.974Z",
      "lastSeenAt": "2026-06-25T12:29:53.974Z"
    },
    {
      "key": "Kuching, Sarawak, MY",
      "label": "Kuching, Sarawak, MY",
      "city": "Kuching",
      "region": "Sarawak",
      "country": "MY",
      "latitude": "1.548",
      "longitude": "110.368",
      "count": 1,
      "firstSeenAt": "2026-06-27T13:25:26.670Z",
      "lastSeenAt": "2026-06-27T13:25:26.670Z"
    },
    {
      "key": "Johor Bahru, Johor, MY",
      "label": "Johor Bahru, Johor, MY",
      "city": "Johor Bahru",
      "region": "Johor",
      "country": "MY",
      "latitude": "1.466",
      "longitude": "103.758",
      "count": 1,
      "firstSeenAt": "2026-06-28T18:28:10.984Z",
      "lastSeenAt": "2026-06-28T18:28:10.984Z"
    },
    {
      "key": "Nellore, Andhra Pradesh, IN",
      "label": "Nellore, Andhra Pradesh, IN",
      "city": "Nellore",
      "region": "Andhra Pradesh",
      "country": "IN",
      "latitude": "14.450",
      "longitude": "79.987",
      "count": 1,
      "firstSeenAt": "2026-06-29T07:31:35.475Z",
      "lastSeenAt": "2026-06-29T07:31:35.475Z"
    },
    {
      "key": "Kwai Chung, HK",
      "label": "Kwai Chung, HK",
      "city": "Kwai Chung",
      "region": "",
      "country": "HK",
      "latitude": "22.368",
      "longitude": "114.139",
      "count": 1,
      "firstSeenAt": "2026-06-30T03:41:36.187Z",
      "lastSeenAt": "2026-06-30T03:41:36.187Z"
    },
    {
      "key": "Osaka, Osaka, JP",
      "label": "Osaka, Osaka, JP",
      "city": "Osaka",
      "region": "Osaka",
      "country": "JP",
      "latitude": "34.694",
      "longitude": "135.501",
      "count": 1,
      "firstSeenAt": "2026-07-06T00:46:53.294Z",
      "lastSeenAt": "2026-07-06T00:46:53.294Z"
    },
    {
      "key": "Toyota, Aichi, JP",
      "label": "Toyota, Aichi, JP",
      "city": "Toyota",
      "region": "Aichi",
      "country": "JP",
      "latitude": "35.083",
      "longitude": "137.150",
      "count": 1,
      "firstSeenAt": "2026-07-09T03:04:46.368Z",
      "lastSeenAt": "2026-07-09T03:04:46.368Z"
    },
    {
      "key": "Dispur, Assam, IN",
      "label": "Dispur, Assam, IN",
      "city": "Dispur",
      "region": "Assam",
      "country": "IN",
      "latitude": "26.136",
      "longitude": "91.801",
      "count": 1,
      "firstSeenAt": "2026-07-16T12:13:08.219Z",
      "lastSeenAt": "2026-07-16T12:13:08.219Z"
    },
    {
      "key": "Porbandar, Gujarat, IN",
      "label": "Porbandar, Gujarat, IN",
      "city": "Porbandar",
      "region": "Gujarat",
      "country": "IN",
      "latitude": "21.642",
      "longitude": "69.609",
      "count": 1,
      "firstSeenAt": "2026-07-16T12:53:19.938Z",
      "lastSeenAt": "2026-07-16T12:53:19.938Z"
    },
    {
      "key": "Sonīpat, Haryana, IN",
      "label": "Sonīpat, Haryana, IN",
      "city": "Sonīpat",
      "region": "Haryana",
      "country": "IN",
      "latitude": "28.995",
      "longitude": "77.019",
      "count": 1,
      "firstSeenAt": "2026-07-17T12:56:31.057Z",
      "lastSeenAt": "2026-07-17T12:56:31.057Z"
    },
    {
      "key": "Trashi Yangtse, Trashi Yangste, BT",
      "label": "Trashi Yangtse, Trashi Yangste, BT",
      "city": "Trashi Yangtse",
      "region": "Trashi Yangste",
      "country": "BT",
      "latitude": "27.612",
      "longitude": "91.498",
      "count": 1,
      "firstSeenAt": "2026-07-18T04:37:24.942Z",
      "lastSeenAt": "2026-07-18T04:37:24.942Z"
    },
    {
      "key": "Bangkok, Bangkok, TH",
      "label": "Bangkok, Bangkok, TH",
      "city": "Bangkok",
      "region": "Bangkok",
      "country": "TH",
      "latitude": "13.754",
      "longitude": "100.501",
      "count": 1,
      "firstSeenAt": "2026-07-20T18:36:57.671Z",
      "lastSeenAt": "2026-07-20T18:36:57.671Z"
    },
    {
      "key": "Clonee, Leinster, IE",
      "label": "Clonee, Leinster, IE",
      "city": "Clonee",
      "region": "Leinster",
      "country": "IE",
      "latitude": "53.412",
      "longitude": "-6.444",
      "count": 1,
      "firstSeenAt": "2026-07-22T02:13:04.992Z",
      "lastSeenAt": "2026-07-22T02:13:04.992Z"
    }
  ],
  "pages": [
    {
      "key": "/",
      "label": "/",
      "count": 107,
      "firstSeenAt": "2026-06-23T01:34:00.955Z",
      "lastSeenAt": "2026-07-23T13:00:54.386Z"
    },
    {
      "key": "/Carkem?fbclid=IwZXh0bgNhZW0CMTEAc3J0YwZhcHBfaWQMMjU2MjgxMDQwNTU4AAEej80NNTR0gtSQxs8FQCVgptvd8GiMc7UM8ba9HXw8j9ctkJx5f4m5OrwM1Q4_aem_pFK-ttBnC7PsWMTvFcAieg",
      "label": "/Carkem?fbclid=IwZXh0bgNhZW0CMTEAc3J0YwZhcHBfaWQMMjU2MjgxMDQwNTU4AAEej80NNTR0gtSQxs8FQCVgptvd8GiMc7UM8ba9HXw8j9ctkJx5f4m5OrwM1Q4_aem_pFK-ttBnC7PsWMTvFcAieg",
      "count": 1,
      "firstSeenAt": "2026-06-23T18:49:41.127Z",
      "lastSeenAt": "2026-06-23T18:49:41.127Z"
    },
    {
      "key": "/dashboard",
      "label": "/dashboard",
      "count": 1,
      "firstSeenAt": "2026-07-20T16:26:01.049Z",
      "lastSeenAt": "2026-07-20T16:26:01.049Z"
    },
    {
      "key": "/TT",
      "label": "/TT",
      "count": 1,
      "firstSeenAt": "2026-07-22T02:13:04.992Z",
      "lastSeenAt": "2026-07-22T02:13:04.992Z"
    }
  ],
  "recentVisits": [
    {
      "visitedAt": "2026-07-23T13:00:54.386Z",
      "page": "/",
      "country": "BT",
      "continent": "AS",
      "region": "Thimphu District",
      "city": "Thimphu",
      "timezone": "Asia/Thimphu",
      "latitude": "27.466",
      "longitude": "89.642",
      "visitorType": "new",
      "sessionType": "new",
      "visitorVisitCount": 1
    },
    {
      "visitedAt": "2026-07-22T02:13:04.992Z",
      "page": "/TT",
      "country": "IE",
      "continent": "EU",
      "region": "Leinster",
      "city": "Clonee",
      "timezone": "Europe/Dublin",
      "latitude": "53.412",
      "longitude": "-6.444",
      "visitorType": "new",
      "sessionType": "new",
      "visitorVisitCount": 1
    },
    {
      "visitedAt": "2026-07-22T01:29:13.573Z",
      "page": "/",
      "country": "SG",
      "continent": "AS",
      "region": "",
      "city": "Singapore",
      "timezone": "Asia/Singapore",
      "latitude": "1.290",
      "longitude": "103.850",
      "visitorType": "returning",
      "sessionType": "new",
      "visitorVisitCount": 2
    },
    {
      "visitedAt": "2026-07-21T17:20:09.893Z",
      "page": "/",
      "country": "BT",
      "continent": "AS",
      "region": "Thimphu District",
      "city": "Thimphu",
      "timezone": "Asia/Thimphu",
      "latitude": "27.466",
      "longitude": "89.642",
      "visitorType": "returning",
      "sessionType": "new",
      "visitorVisitCount": 13
    },
    {
      "visitedAt": "2026-07-21T01:57:55.825Z",
      "page": "/",
      "country": "US",
      "continent": "NA",
      "region": "California",
      "city": "Los Angeles",
      "timezone": "America/Los_Angeles",
      "latitude": "34.052",
      "longitude": "-118.244",
      "visitorType": "new",
      "sessionType": "new",
      "visitorVisitCount": 1
    },
    {
      "visitedAt": "2026-07-20T18:36:57.671Z",
      "page": "/",
      "country": "TH",
      "continent": "AS",
      "region": "Bangkok",
      "city": "Bangkok",
      "timezone": "Asia/Bangkok",
      "latitude": "13.754",
      "longitude": "100.501",
      "visitorType": "returning",
      "sessionType": "new",
      "visitorVisitCount": 12
    },
    {
      "visitedAt": "2026-07-20T16:29:44.898Z",
      "page": "/",
      "country": "IN",
      "continent": "AS",
      "region": "Maharashtra",
      "city": "Mumbai",
      "timezone": "Asia/Kolkata",
      "latitude": "19.073",
      "longitude": "72.883",
      "visitorType": "legacy",
      "sessionType": "unknown",
      "visitorVisitCount": 0
    },
    {
      "visitedAt": "2026-07-20T16:26:47.566Z",
      "page": "/",
      "country": "IN",
      "continent": "AS",
      "region": "Maharashtra",
      "city": "Mumbai",
      "timezone": "Asia/Kolkata",
      "latitude": "19.073",
      "longitude": "72.883",
      "visitorType": "returning",
      "sessionType": "same",
      "visitorVisitCount": 11
    },
    {
      "visitedAt": "2026-07-20T16:26:01.049Z",
      "page": "/dashboard",
      "country": "IN",
      "continent": "AS",
      "region": "Maharashtra",
      "city": "Mumbai",
      "timezone": "Asia/Kolkata",
      "latitude": "19.073",
      "longitude": "72.883",
      "visitorType": "returning",
      "sessionType": "same",
      "visitorVisitCount": 10
    },
    {
      "visitedAt": "2026-07-20T16:25:56.732Z",
      "page": "/",
      "country": "IN",
      "continent": "AS",
      "region": "Maharashtra",
      "city": "Mumbai",
      "timezone": "Asia/Kolkata",
      "latitude": "19.073",
      "longitude": "72.883",
      "visitorType": "returning",
      "sessionType": "new",
      "visitorVisitCount": 9
    },
    {
      "visitedAt": "2026-07-18T17:28:40.571Z",
      "page": "/",
      "country": "IN",
      "continent": "AS",
      "region": "West Bengal",
      "city": "Siliguri",
      "timezone": "Asia/Kolkata",
      "latitude": "26.710",
      "longitude": "88.429",
      "visitorType": "returning",
      "sessionType": "new",
      "visitorVisitCount": 3
    },
    {
      "visitedAt": "2026-07-18T16:34:28.979Z",
      "page": "/",
      "country": "IN",
      "continent": "AS",
      "region": "West Bengal",
      "city": "Siliguri",
      "timezone": "Asia/Kolkata",
      "latitude": "26.710",
      "longitude": "88.429",
      "visitorType": "returning",
      "sessionType": "new",
      "visitorVisitCount": 2
    },
    {
      "visitedAt": "2026-07-18T04:37:24.942Z",
      "page": "/",
      "country": "BT",
      "continent": "AS",
      "region": "Trashi Yangste",
      "city": "Trashi Yangtse",
      "timezone": "Asia/Thimphu",
      "latitude": "27.612",
      "longitude": "91.498",
      "visitorType": "new",
      "sessionType": "new",
      "visitorVisitCount": 1
    },
    {
      "visitedAt": "2026-07-17T12:56:31.057Z",
      "page": "/",
      "country": "IN",
      "continent": "AS",
      "region": "Haryana",
      "city": "Sonīpat",
      "timezone": "Asia/Kolkata",
      "latitude": "28.995",
      "longitude": "77.019",
      "visitorType": "new",
      "sessionType": "new",
      "visitorVisitCount": 1
    },
    {
      "visitedAt": "2026-07-17T09:00:14.440Z",
      "page": "/",
      "country": "IN",
      "continent": "AS",
      "region": "West Bengal",
      "city": "Siliguri",
      "timezone": "Asia/Kolkata",
      "latitude": "26.710",
      "longitude": "88.429",
      "visitorType": "new",
      "sessionType": "new",
      "visitorVisitCount": 1
    },
    {
      "visitedAt": "2026-07-16T12:53:19.938Z",
      "page": "/",
      "country": "IN",
      "continent": "AS",
      "region": "Gujarat",
      "city": "Porbandar",
      "timezone": "Asia/Kolkata",
      "latitude": "21.642",
      "longitude": "69.609",
      "visitorType": "new",
      "sessionType": "new",
      "visitorVisitCount": 1
    },
    {
      "visitedAt": "2026-07-16T12:13:08.219Z",
      "page": "/",
      "country": "IN",
      "continent": "AS",
      "region": "Assam",
      "city": "Dispur",
      "timezone": "Asia/Kolkata",
      "latitude": "26.136",
      "longitude": "91.801",
      "visitorType": "new",
      "sessionType": "new",
      "visitorVisitCount": 1
    },
    {
      "visitedAt": "2026-07-16T03:42:47.379Z",
      "page": "/",
      "country": "US",
      "continent": "NA",
      "region": "California",
      "city": "Los Angeles",
      "timezone": "America/Los_Angeles",
      "latitude": "34.052",
      "longitude": "-118.244",
      "visitorType": "new",
      "sessionType": "new",
      "visitorVisitCount": 1
    },
    {
      "visitedAt": "2026-07-10T05:53:56.150Z",
      "page": "/",
      "country": "BT",
      "continent": "AS",
      "region": "Thimphu District",
      "city": "Thimphu",
      "timezone": "Asia/Thimphu",
      "latitude": "27.466",
      "longitude": "89.642",
      "visitorType": "returning",
      "sessionType": "new",
      "visitorVisitCount": 2
    },
    {
      "visitedAt": "2026-07-10T04:18:26.840Z",
      "page": "/",
      "country": "BT",
      "continent": "AS",
      "region": "Thimphu District",
      "city": "Thimphu",
      "timezone": "Asia/Thimphu",
      "latitude": "27.466",
      "longitude": "89.642",
      "visitorType": "new",
      "sessionType": "new",
      "visitorVisitCount": 1
    },
    {
      "visitedAt": "2026-07-09T15:05:04.813Z",
      "page": "/",
      "country": "SG",
      "continent": "AS",
      "region": "",
      "city": "Singapore",
      "timezone": "Asia/Singapore",
      "latitude": "1.290",
      "longitude": "103.850",
      "visitorType": "returning",
      "sessionType": "new",
      "visitorVisitCount": 8
    },
    {
      "visitedAt": "2026-07-09T08:13:38.808Z",
      "page": "/",
      "country": "BT",
      "continent": "AS",
      "region": "Thimphu District",
      "city": "Thimphu",
      "timezone": "Asia/Thimphu",
      "latitude": "27.466",
      "longitude": "89.642",
      "visitorType": "new",
      "sessionType": "new",
      "visitorVisitCount": 1
    },
    {
      "visitedAt": "2026-07-09T03:04:46.368Z",
      "page": "/",
      "country": "JP",
      "continent": "AS",
      "region": "Aichi",
      "city": "Toyota",
      "timezone": "Asia/Tokyo",
      "latitude": "35.083",
      "longitude": "137.150",
      "visitorType": "new",
      "sessionType": "new",
      "visitorVisitCount": 1
    },
    {
      "visitedAt": "2026-07-09T00:27:43.260Z",
      "page": "/",
      "country": "AU",
      "continent": "OC",
      "region": "Queensland",
      "city": "Brisbane",
      "timezone": "Australia/Brisbane",
      "latitude": "-27.468",
      "longitude": "153.028",
      "visitorType": "returning",
      "sessionType": "new",
      "visitorVisitCount": 7
    },
    {
      "visitedAt": "2026-07-08T09:35:34.529Z",
      "page": "/",
      "country": "IN",
      "continent": "AS",
      "region": "West Bengal",
      "city": "Kolkata",
      "timezone": "Asia/Kolkata",
      "latitude": "22.563",
      "longitude": "88.363",
      "visitorType": "new",
      "sessionType": "new",
      "visitorVisitCount": 1
    },
    {
      "visitedAt": "2026-07-08T03:34:07.131Z",
      "page": "/",
      "country": "BT",
      "continent": "AS",
      "region": "Chukha",
      "city": "Phuntsholing",
      "timezone": "Asia/Thimphu",
      "latitude": "26.852",
      "longitude": "89.388",
      "visitorType": "new",
      "sessionType": "new",
      "visitorVisitCount": 1
    },
    {
      "visitedAt": "2026-07-07T08:19:18.946Z",
      "page": "/",
      "country": "IN",
      "continent": "AS",
      "region": "Gujarat",
      "city": "Ahmedabad",
      "timezone": "Asia/Kolkata",
      "latitude": "23.026",
      "longitude": "72.587",
      "visitorType": "new",
      "sessionType": "new",
      "visitorVisitCount": 1
    },
    {
      "visitedAt": "2026-07-06T23:45:18.846Z",
      "page": "/",
      "country": "AU",
      "continent": "OC",
      "region": "Queensland",
      "city": "Brisbane",
      "timezone": "Australia/Brisbane",
      "latitude": "-27.468",
      "longitude": "153.028",
      "visitorType": "returning",
      "sessionType": "new",
      "visitorVisitCount": 6
    },
    {
      "visitedAt": "2026-07-06T05:56:05.569Z",
      "page": "/",
      "country": "IN",
      "continent": "AS",
      "region": "West Bengal",
      "city": "Siliguri",
      "timezone": "Asia/Kolkata",
      "latitude": "26.710",
      "longitude": "88.429",
      "visitorType": "new",
      "sessionType": "new",
      "visitorVisitCount": 1
    },
    {
      "visitedAt": "2026-07-06T05:03:57.247Z",
      "page": "/",
      "country": "BT",
      "continent": "AS",
      "region": "Thimphu District",
      "city": "Thimphu",
      "timezone": "Asia/Thimphu",
      "latitude": "27.466",
      "longitude": "89.642",
      "visitorType": "returning",
      "sessionType": "new",
      "visitorVisitCount": 2
    },
    {
      "visitedAt": "2026-07-06T00:46:53.294Z",
      "page": "/",
      "country": "JP",
      "continent": "AS",
      "region": "Osaka",
      "city": "Osaka",
      "timezone": "Asia/Tokyo",
      "latitude": "34.694",
      "longitude": "135.501",
      "visitorType": "new",
      "sessionType": "new",
      "visitorVisitCount": 1
    },
    {
      "visitedAt": "2026-07-05T06:53:29.625Z",
      "page": "/",
      "country": "IN",
      "continent": "AS",
      "region": "Gujarat",
      "city": "Ahmedabad",
      "timezone": "Asia/Kolkata",
      "latitude": "23.026",
      "longitude": "72.587",
      "visitorType": "new",
      "sessionType": "new",
      "visitorVisitCount": 1
    },
    {
      "visitedAt": "2026-07-05T06:51:02.870Z",
      "page": "/",
      "country": "IN",
      "continent": "AS",
      "region": "West Bengal",
      "city": "Siliguri",
      "timezone": "Asia/Kolkata",
      "latitude": "26.710",
      "longitude": "88.429",
      "visitorType": "returning",
      "sessionType": "new",
      "visitorVisitCount": 2
    },
    {
      "visitedAt": "2026-07-05T01:01:18.650Z",
      "page": "/",
      "country": "JP",
      "continent": "AS",
      "region": "Kyoto",
      "city": "Kyoto",
      "timezone": "Asia/Tokyo",
      "latitude": "35.021",
      "longitude": "135.754",
      "visitorType": "returning",
      "sessionType": "new",
      "visitorVisitCount": 5
    },
    {
      "visitedAt": "2026-07-05T01:00:11.905Z",
      "page": "/",
      "country": "JP",
      "continent": "AS",
      "region": "Kyoto",
      "city": "Kyoto",
      "timezone": "Asia/Tokyo",
      "latitude": "35.021",
      "longitude": "135.754",
      "visitorType": "new",
      "sessionType": "new",
      "visitorVisitCount": 1
    },
    {
      "visitedAt": "2026-07-05T00:33:17.291Z",
      "page": "/",
      "country": "JP",
      "continent": "AS",
      "region": "Kyoto",
      "city": "Kyoto",
      "timezone": "Asia/Tokyo",
      "latitude": "35.021",
      "longitude": "135.754",
      "visitorType": "legacy",
      "sessionType": "unknown",
      "visitorVisitCount": 0
    },
    {
      "visitedAt": "2026-07-05T00:25:39.681Z",
      "page": "/",
      "country": "JP",
      "continent": "AS",
      "region": "Kyoto",
      "city": "Kyoto",
      "timezone": "Asia/Tokyo",
      "latitude": "35.021",
      "longitude": "135.754",
      "visitorType": "returning",
      "sessionType": "new",
      "visitorVisitCount": 4
    },
    {
      "visitedAt": "2026-07-04T10:19:44.593Z",
      "page": "/",
      "country": "JP",
      "continent": "AS",
      "region": "Kyoto",
      "city": "Kyoto",
      "timezone": "Asia/Tokyo",
      "latitude": "35.021",
      "longitude": "135.754",
      "visitorType": "returning",
      "sessionType": "new",
      "visitorVisitCount": 3
    },
    {
      "visitedAt": "2026-07-03T12:53:31.473Z",
      "page": "/",
      "country": "NP",
      "continent": "AS",
      "region": "Koshi",
      "city": "Bhadrapur",
      "timezone": "Asia/Kathmandu",
      "latitude": "26.544",
      "longitude": "88.094",
      "visitorType": "returning",
      "sessionType": "new",
      "visitorVisitCount": 3
    },
    {
      "visitedAt": "2026-07-03T12:01:48.133Z",
      "page": "/",
      "country": "IN",
      "continent": "AS",
      "region": "West Bengal",
      "city": "Kolkata",
      "timezone": "Asia/Kolkata",
      "latitude": "22.563",
      "longitude": "88.363",
      "visitorType": "new",
      "sessionType": "new",
      "visitorVisitCount": 1
    },
    {
      "visitedAt": "2026-07-03T11:52:08.486Z",
      "page": "/",
      "country": "NP",
      "continent": "AS",
      "region": "Koshi",
      "city": "Bhadrapur",
      "timezone": "Asia/Kathmandu",
      "latitude": "26.544",
      "longitude": "88.094",
      "visitorType": "returning",
      "sessionType": "new",
      "visitorVisitCount": 2
    },
    {
      "visitedAt": "2026-07-03T11:11:49.185Z",
      "page": "/",
      "country": "IN",
      "continent": "AS",
      "region": "West Bengal",
      "city": "Siliguri",
      "timezone": "Asia/Kolkata",
      "latitude": "26.710",
      "longitude": "88.429",
      "visitorType": "new",
      "sessionType": "new",
      "visitorVisitCount": 1
    },
    {
      "visitedAt": "2026-07-03T11:11:10.321Z",
      "page": "/",
      "country": "NP",
      "continent": "AS",
      "region": "Koshi",
      "city": "Bhadrapur",
      "timezone": "Asia/Kathmandu",
      "latitude": "26.544",
      "longitude": "88.094",
      "visitorType": "new",
      "sessionType": "new",
      "visitorVisitCount": 1
    },
    {
      "visitedAt": "2026-07-02T14:44:18.771Z",
      "page": "/",
      "country": "BT",
      "continent": "AS",
      "region": "Thimphu District",
      "city": "Thimphu",
      "timezone": "Asia/Thimphu",
      "latitude": "27.466",
      "longitude": "89.642",
      "visitorType": "new",
      "sessionType": "new",
      "visitorVisitCount": 1
    },
    {
      "visitedAt": "2026-06-30T03:41:36.187Z",
      "page": "/",
      "country": "HK",
      "continent": "AS",
      "region": "",
      "city": "Kwai Chung",
      "timezone": "Asia/Hong_Kong",
      "latitude": "22.368",
      "longitude": "114.139",
      "visitorType": "new",
      "sessionType": "new",
      "visitorVisitCount": 1
    },
    {
      "visitedAt": "2026-06-29T15:37:34.134Z",
      "page": "/",
      "country": "BT",
      "continent": "AS",
      "region": "Chukha",
      "city": "Phuntsholing",
      "timezone": "Asia/Thimphu",
      "latitude": "26.852",
      "longitude": "89.388",
      "visitorType": "new",
      "sessionType": "new",
      "visitorVisitCount": 1
    },
    {
      "visitedAt": "2026-06-29T07:31:35.475Z",
      "page": "/",
      "country": "IN",
      "continent": "AS",
      "region": "Andhra Pradesh",
      "city": "Nellore",
      "timezone": "Asia/Kolkata",
      "latitude": "14.450",
      "longitude": "79.987",
      "visitorType": "new",
      "sessionType": "new",
      "visitorVisitCount": 1
    },
    {
      "visitedAt": "2026-06-29T07:23:38.101Z",
      "page": "/",
      "country": "BT",
      "continent": "AS",
      "region": "Chukha",
      "city": "Phuntsholing",
      "timezone": "Asia/Thimphu",
      "latitude": "26.852",
      "longitude": "89.388",
      "visitorType": "new",
      "sessionType": "new",
      "visitorVisitCount": 1
    },
    {
      "visitedAt": "2026-06-29T04:50:46.468Z",
      "page": "/",
      "country": "BT",
      "continent": "AS",
      "region": "Chukha",
      "city": "Phuntsholing",
      "timezone": "Asia/Thimphu",
      "latitude": "26.852",
      "longitude": "89.388",
      "visitorType": "new",
      "sessionType": "new",
      "visitorVisitCount": 1
    },
    {
      "visitedAt": "2026-06-29T04:35:14.047Z",
      "page": "/",
      "country": "BT",
      "continent": "AS",
      "region": "Thimphu District",
      "city": "Thimphu",
      "timezone": "Asia/Thimphu",
      "latitude": "27.466",
      "longitude": "89.642",
      "visitorType": "new",
      "sessionType": "new",
      "visitorVisitCount": 1
    },
    {
      "visitedAt": "2026-06-29T04:12:04.266Z",
      "page": "/",
      "country": "IN",
      "continent": "AS",
      "region": "West Bengal",
      "city": "Siliguri",
      "timezone": "Asia/Kolkata",
      "latitude": "26.710",
      "longitude": "88.429",
      "visitorType": "new",
      "sessionType": "new",
      "visitorVisitCount": 1
    },
    {
      "visitedAt": "2026-06-28T18:28:10.984Z",
      "page": "/",
      "country": "MY",
      "continent": "AS",
      "region": "Johor",
      "city": "Johor Bahru",
      "timezone": "Asia/Kuala_Lumpur",
      "latitude": "1.466",
      "longitude": "103.758",
      "visitorType": "new",
      "sessionType": "new",
      "visitorVisitCount": 1
    },
    {
      "visitedAt": "2026-06-27T13:25:26.670Z",
      "page": "/",
      "country": "MY",
      "continent": "AS",
      "region": "Sarawak",
      "city": "Kuching",
      "timezone": "Asia/Kuching",
      "latitude": "1.548",
      "longitude": "110.368",
      "visitorType": "new",
      "sessionType": "new",
      "visitorVisitCount": 1
    },
    {
      "visitedAt": "2026-06-26T19:46:36.351Z",
      "page": "/",
      "country": "BT",
      "continent": "AS",
      "region": "Thimphu District",
      "city": "Thimphu",
      "timezone": "Asia/Thimphu",
      "latitude": "27.466",
      "longitude": "89.642",
      "visitorType": "returning",
      "sessionType": "new",
      "visitorVisitCount": 2
    },
    {
      "visitedAt": "2026-06-26T18:02:25.104Z",
      "page": "/",
      "country": "IN",
      "continent": "AS",
      "region": "West Bengal",
      "city": "Siliguri",
      "timezone": "Asia/Kolkata",
      "latitude": "26.710",
      "longitude": "88.429",
      "visitorType": "new",
      "sessionType": "new",
      "visitorVisitCount": 1
    },
    {
      "visitedAt": "2026-06-26T17:59:10.343Z",
      "page": "/",
      "country": "BT",
      "continent": "AS",
      "region": "Thimphu District",
      "city": "Thimphu",
      "timezone": "Asia/Thimphu",
      "latitude": "27.466",
      "longitude": "89.642",
      "visitorType": "new",
      "sessionType": "new",
      "visitorVisitCount": 1
    },
    {
      "visitedAt": "2026-06-26T17:13:37.049Z",
      "page": "/",
      "country": "BT",
      "continent": "AS",
      "region": "Thimphu District",
      "city": "Thimphu",
      "timezone": "Asia/Thimphu",
      "latitude": "27.466",
      "longitude": "89.642",
      "visitorType": "returning",
      "sessionType": "new",
      "visitorVisitCount": 2
    },
    {
      "visitedAt": "2026-06-26T05:00:46.905Z",
      "page": "/",
      "country": "BT",
      "continent": "AS",
      "region": "Thimphu District",
      "city": "Thimphu",
      "timezone": "Asia/Thimphu",
      "latitude": "27.466",
      "longitude": "89.642",
      "visitorType": "new",
      "sessionType": "new",
      "visitorVisitCount": 1
    },
    {
      "visitedAt": "2026-06-26T02:27:17.808Z",
      "page": "/",
      "country": "BT",
      "continent": "AS",
      "region": "Thimphu District",
      "city": "Thimphu",
      "timezone": "Asia/Thimphu",
      "latitude": "27.466",
      "longitude": "89.642"
    },
    {
      "visitedAt": "2026-06-26T02:06:53.823Z",
      "page": "/",
      "country": "BT",
      "continent": "AS",
      "region": "Thimphu District",
      "city": "Thimphu",
      "timezone": "Asia/Thimphu",
      "latitude": "27.466",
      "longitude": "89.642"
    },
    {
      "visitedAt": "2026-06-26T02:06:03.974Z",
      "page": "/",
      "country": "BT",
      "continent": "AS",
      "region": "Thimphu District",
      "city": "Thimphu",
      "timezone": "Asia/Thimphu",
      "latitude": "27.466",
      "longitude": "89.642"
    },
    {
      "visitedAt": "2026-06-26T02:05:46.509Z",
      "page": "/",
      "country": "BT",
      "continent": "AS",
      "region": "Thimphu District",
      "city": "Thimphu",
      "timezone": "Asia/Thimphu",
      "latitude": "27.466",
      "longitude": "89.642"
    },
    {
      "visitedAt": "2026-06-26T01:43:41.763Z",
      "page": "/",
      "country": "BT",
      "continent": "AS",
      "region": "Thimphu District",
      "city": "Thimphu",
      "timezone": "Asia/Thimphu",
      "latitude": "27.466",
      "longitude": "89.642"
    },
    {
      "visitedAt": "2026-06-25T17:56:56.052Z",
      "page": "/",
      "country": "BT",
      "continent": "AS",
      "region": "Thimphu District",
      "city": "Thimphu",
      "timezone": "Asia/Thimphu",
      "latitude": "27.466",
      "longitude": "89.642"
    },
    {
      "visitedAt": "2026-06-25T17:56:46.286Z",
      "page": "/",
      "country": "BT",
      "continent": "AS",
      "region": "Thimphu District",
      "city": "Thimphu",
      "timezone": "Asia/Thimphu",
      "latitude": "27.466",
      "longitude": "89.642"
    },
    {
      "visitedAt": "2026-06-25T12:29:53.974Z",
      "page": "/",
      "country": "IN",
      "continent": "AS",
      "region": "Andhra Pradesh",
      "city": "Kadapa",
      "timezone": "Asia/Kolkata",
      "latitude": "14.480",
      "longitude": "78.823"
    },
    {
      "visitedAt": "2026-06-25T12:15:05.625Z",
      "page": "/",
      "country": "BT",
      "continent": "AS",
      "region": "Thimphu District",
      "city": "Thimphu",
      "timezone": "Asia/Thimphu",
      "latitude": "27.466",
      "longitude": "89.642"
    },
    {
      "visitedAt": "2026-06-25T10:26:26.693Z",
      "page": "/",
      "country": "BT",
      "continent": "AS",
      "region": "Thimphu District",
      "city": "Thimphu",
      "timezone": "Asia/Thimphu",
      "latitude": "27.466",
      "longitude": "89.642"
    },
    {
      "visitedAt": "2026-06-25T10:03:36.982Z",
      "page": "/",
      "country": "IN",
      "continent": "AS",
      "region": "Assam",
      "city": "Tinsukia",
      "timezone": "Asia/Kolkata",
      "latitude": "27.489",
      "longitude": "95.360"
    },
    {
      "visitedAt": "2026-06-25T08:58:41.882Z",
      "page": "/",
      "country": "BT",
      "continent": "AS",
      "region": "Thimphu District",
      "city": "Thimphu",
      "timezone": "Asia/Thimphu",
      "latitude": "27.466",
      "longitude": "89.642"
    },
    {
      "visitedAt": "2026-06-25T04:14:56.370Z",
      "page": "/",
      "country": "BT",
      "continent": "AS",
      "region": "Thimphu District",
      "city": "Thimphu",
      "timezone": "Asia/Thimphu",
      "latitude": "27.466",
      "longitude": "89.642"
    },
    {
      "visitedAt": "2026-06-25T04:14:54.396Z",
      "page": "/",
      "country": "BT",
      "continent": "AS",
      "region": "Thimphu District",
      "city": "Thimphu",
      "timezone": "Asia/Thimphu",
      "latitude": "27.466",
      "longitude": "89.642"
    },
    {
      "visitedAt": "2026-06-25T03:33:24.482Z",
      "page": "/",
      "country": "BT",
      "continent": "AS",
      "region": "Chukha",
      "city": "Phuntsholing",
      "timezone": "Asia/Thimphu",
      "latitude": "26.852",
      "longitude": "89.388"
    },
    {
      "visitedAt": "2026-06-25T03:22:23.166Z",
      "page": "/",
      "country": "BT",
      "continent": "AS",
      "region": "Thimphu District",
      "city": "Thimphu",
      "timezone": "Asia/Thimphu",
      "latitude": "27.466",
      "longitude": "89.642"
    },
    {
      "visitedAt": "2026-06-25T03:08:56.938Z",
      "page": "/",
      "country": "BT",
      "continent": "AS",
      "region": "Thimphu District",
      "city": "Thimphu",
      "timezone": "Asia/Thimphu",
      "latitude": "27.466",
      "longitude": "89.642"
    },
    {
      "visitedAt": "2026-06-25T03:07:28.495Z",
      "page": "/",
      "country": "BT",
      "continent": "AS",
      "region": "Thimphu District",
      "city": "Thimphu",
      "timezone": "Asia/Thimphu",
      "latitude": "27.466",
      "longitude": "89.642"
    },
    {
      "visitedAt": "2026-06-25T03:02:48.123Z",
      "page": "/",
      "country": "BT",
      "continent": "AS",
      "region": "Chukha",
      "city": "Phuntsholing",
      "timezone": "Asia/Thimphu",
      "latitude": "26.852",
      "longitude": "89.388"
    },
    {
      "visitedAt": "2026-06-25T02:11:22.507Z",
      "page": "/",
      "country": "BT",
      "continent": "AS",
      "region": "Thimphu District",
      "city": "Thimphu",
      "timezone": "Asia/Thimphu",
      "latitude": "27.466",
      "longitude": "89.642"
    },
    {
      "visitedAt": "2026-06-25T02:02:13.684Z",
      "page": "/",
      "country": "BT",
      "continent": "AS",
      "region": "Thimphu District",
      "city": "Thimphu",
      "timezone": "Asia/Thimphu",
      "latitude": "27.466",
      "longitude": "89.642"
    },
    {
      "visitedAt": "2026-06-25T01:59:14.453Z",
      "page": "/",
      "country": "BT",
      "continent": "AS",
      "region": "Thimphu District",
      "city": "Thimphu",
      "timezone": "Asia/Thimphu",
      "latitude": "27.466",
      "longitude": "89.642"
    }
  ],
  "visitors": [
    {
      "key": "100b3ef4bceff68a0a1786a0c42c4f7d782fc06aad1f55e006c4da8964fb35a2",
      "firstSeenAt": "2026-07-23T13:00:54.386Z",
      "lastSeenAt": "2026-07-23T13:00:54.386Z",
      "visitCount": 1,
      "sessionCount": 1,
      "firstPage": "/",
      "lastPage": "/",
      "firstCountry": "BT",
      "firstRegion": "Thimphu District",
      "firstCity": "Thimphu",
      "firstTimezone": "Asia/Thimphu",
      "lastCountry": "BT",
      "lastRegion": "Thimphu District",
      "lastCity": "Thimphu",
      "lastTimezone": "Asia/Thimphu",
      "lastLatitude": "27.466",
      "lastLongitude": "89.642"
    },
    {
      "key": "48f961a87c1c439a234a421124f9681b348a6ad49bff97c263eae71bf512b709",
      "firstSeenAt": "2026-07-22T02:13:04.992Z",
      "lastSeenAt": "2026-07-22T02:13:04.992Z",
      "visitCount": 1,
      "sessionCount": 1,
      "firstPage": "/TT",
      "lastPage": "/TT",
      "firstCountry": "IE",
      "firstRegion": "Leinster",
      "firstCity": "Clonee",
      "firstTimezone": "Europe/Dublin",
      "lastCountry": "IE",
      "lastRegion": "Leinster",
      "lastCity": "Clonee",
      "lastTimezone": "Europe/Dublin",
      "lastLatitude": "53.412",
      "lastLongitude": "-6.444"
    },
    {
      "key": "8ad982797f215f17fe6386073fc18b8d1ac7e5c3786537983ce620635fd7abef",
      "firstSeenAt": "2026-07-21T01:57:55.825Z",
      "lastSeenAt": "2026-07-22T01:29:13.573Z",
      "visitCount": 2,
      "sessionCount": 2,
      "firstPage": "/",
      "lastPage": "/",
      "firstCountry": "US",
      "firstRegion": "California",
      "firstCity": "Los Angeles",
      "firstTimezone": "America/Los_Angeles",
      "lastCountry": "SG",
      "lastRegion": "",
      "lastCity": "Singapore",
      "lastTimezone": "Asia/Singapore",
      "lastLatitude": "1.290",
      "lastLongitude": "103.850"
    },
    {
      "key": "acc17a467f52d038d9c57f819dd0117c29ed8ef2cf87d458da12d5c191ba3b15",
      "firstSeenAt": "2026-06-26T05:00:46.905Z",
      "lastSeenAt": "2026-07-21T17:20:09.893Z",
      "visitCount": 13,
      "sessionCount": 11,
      "firstPage": "/",
      "lastPage": "/",
      "firstCountry": "BT",
      "firstRegion": "Thimphu District",
      "firstCity": "Thimphu",
      "firstTimezone": "Asia/Thimphu",
      "lastCountry": "BT",
      "lastRegion": "Thimphu District",
      "lastCity": "Thimphu",
      "lastTimezone": "Asia/Thimphu",
      "lastLatitude": "27.466",
      "lastLongitude": "89.642"
    },
    {
      "key": "5e4b548840bafa1b2d8c58426313d999a522827d9a9a289b0fd2669aca81404e",
      "firstSeenAt": "2026-07-17T09:00:14.440Z",
      "lastSeenAt": "2026-07-18T17:28:40.571Z",
      "visitCount": 3,
      "sessionCount": 3,
      "firstPage": "/",
      "lastPage": "/",
      "firstCountry": "IN",
      "firstRegion": "West Bengal",
      "firstCity": "Siliguri",
      "firstTimezone": "Asia/Kolkata",
      "lastCountry": "IN",
      "lastRegion": "West Bengal",
      "lastCity": "Siliguri",
      "lastTimezone": "Asia/Kolkata",
      "lastLatitude": "26.710",
      "lastLongitude": "88.429"
    },
    {
      "key": "9fc2695df28892cf2df0a970825103ef623428f44519b7229faaf6371d0dfbe5",
      "firstSeenAt": "2026-07-18T04:37:24.942Z",
      "lastSeenAt": "2026-07-18T04:37:24.942Z",
      "visitCount": 1,
      "sessionCount": 1,
      "firstPage": "/",
      "lastPage": "/",
      "firstCountry": "BT",
      "firstRegion": "Trashi Yangste",
      "firstCity": "Trashi Yangtse",
      "firstTimezone": "Asia/Thimphu",
      "lastCountry": "BT",
      "lastRegion": "Trashi Yangste",
      "lastCity": "Trashi Yangtse",
      "lastTimezone": "Asia/Thimphu",
      "lastLatitude": "27.612",
      "lastLongitude": "91.498"
    },
    {
      "key": "772fdcdeddcfbba52664ec8c61986bc0ab1a201dbcbb4a4ed7c35b8a66628182",
      "firstSeenAt": "2026-07-17T12:56:31.057Z",
      "lastSeenAt": "2026-07-17T12:56:31.057Z",
      "visitCount": 1,
      "sessionCount": 1,
      "firstPage": "/",
      "lastPage": "/",
      "firstCountry": "IN",
      "firstRegion": "Haryana",
      "firstCity": "Sonīpat",
      "firstTimezone": "Asia/Kolkata",
      "lastCountry": "IN",
      "lastRegion": "Haryana",
      "lastCity": "Sonīpat",
      "lastTimezone": "Asia/Kolkata",
      "lastLatitude": "28.995",
      "lastLongitude": "77.019"
    },
    {
      "key": "efdfe37746675e3fcbb545d792cb8a94fd7921a42c7916af8a4965e8479b4ce1",
      "firstSeenAt": "2026-07-16T12:53:19.938Z",
      "lastSeenAt": "2026-07-16T12:53:19.938Z",
      "visitCount": 1,
      "sessionCount": 1,
      "firstPage": "/",
      "lastPage": "/",
      "firstCountry": "IN",
      "firstRegion": "Gujarat",
      "firstCity": "Porbandar",
      "firstTimezone": "Asia/Kolkata",
      "lastCountry": "IN",
      "lastRegion": "Gujarat",
      "lastCity": "Porbandar",
      "lastTimezone": "Asia/Kolkata",
      "lastLatitude": "21.642",
      "lastLongitude": "69.609"
    },
    {
      "key": "65ff36f7d62909b9dba54e9117106268fce9ec9e1b66f3cbb1ec9b21f5e1797b",
      "firstSeenAt": "2026-07-16T12:13:08.219Z",
      "lastSeenAt": "2026-07-16T12:13:08.219Z",
      "visitCount": 1,
      "sessionCount": 1,
      "firstPage": "/",
      "lastPage": "/",
      "firstCountry": "IN",
      "firstRegion": "Assam",
      "firstCity": "Dispur",
      "firstTimezone": "Asia/Kolkata",
      "lastCountry": "IN",
      "lastRegion": "Assam",
      "lastCity": "Dispur",
      "lastTimezone": "Asia/Kolkata",
      "lastLatitude": "26.136",
      "lastLongitude": "91.801"
    },
    {
      "key": "b25e079e653b89b7f48bcfd13b0039bdb1835b0374c9c55119aafe9e5e564eba",
      "firstSeenAt": "2026-07-16T03:42:47.379Z",
      "lastSeenAt": "2026-07-16T03:42:47.379Z",
      "visitCount": 1,
      "sessionCount": 1,
      "firstPage": "/",
      "lastPage": "/",
      "firstCountry": "US",
      "firstRegion": "California",
      "firstCity": "Los Angeles",
      "firstTimezone": "America/Los_Angeles",
      "lastCountry": "US",
      "lastRegion": "California",
      "lastCity": "Los Angeles",
      "lastTimezone": "America/Los_Angeles",
      "lastLatitude": "34.052",
      "lastLongitude": "-118.244"
    },
    {
      "key": "0d1a08cea5dc11f0709b07c110e2b8c7d8fc7f2ef682bc3083e44d37bf0e66f6",
      "firstSeenAt": "2026-07-10T04:18:26.840Z",
      "lastSeenAt": "2026-07-10T05:53:56.150Z",
      "visitCount": 2,
      "sessionCount": 2,
      "firstPage": "/",
      "lastPage": "/",
      "firstCountry": "BT",
      "firstRegion": "Thimphu District",
      "firstCity": "Thimphu",
      "firstTimezone": "Asia/Thimphu",
      "lastCountry": "BT",
      "lastRegion": "Thimphu District",
      "lastCity": "Thimphu",
      "lastTimezone": "Asia/Thimphu",
      "lastLatitude": "27.466",
      "lastLongitude": "89.642"
    },
    {
      "key": "a58ce28e856ebe64b804a74ad43577492560618a51a5073d7f2808ff1ac338d6",
      "firstSeenAt": "2026-07-09T08:13:38.808Z",
      "lastSeenAt": "2026-07-09T08:13:38.808Z",
      "visitCount": 1,
      "sessionCount": 1,
      "firstPage": "/",
      "lastPage": "/",
      "firstCountry": "BT",
      "firstRegion": "Thimphu District",
      "firstCity": "Thimphu",
      "firstTimezone": "Asia/Thimphu",
      "lastCountry": "BT",
      "lastRegion": "Thimphu District",
      "lastCity": "Thimphu",
      "lastTimezone": "Asia/Thimphu",
      "lastLatitude": "27.466",
      "lastLongitude": "89.642"
    },
    {
      "key": "895e718665720cf06f6608812b1178d1e25da61b66bcc6a8918eb05aa2dbf173",
      "firstSeenAt": "2026-07-09T03:04:46.368Z",
      "lastSeenAt": "2026-07-09T03:04:46.368Z",
      "visitCount": 1,
      "sessionCount": 1,
      "firstPage": "/",
      "lastPage": "/",
      "firstCountry": "JP",
      "firstRegion": "Aichi",
      "firstCity": "Toyota",
      "firstTimezone": "Asia/Tokyo",
      "lastCountry": "JP",
      "lastRegion": "Aichi",
      "lastCity": "Toyota",
      "lastTimezone": "Asia/Tokyo",
      "lastLatitude": "35.083",
      "lastLongitude": "137.150"
    },
    {
      "key": "7fc0e3e063e690b5229529c7aa4566b68ba2f3a0ecef67a40b641546997d8ed4",
      "firstSeenAt": "2026-07-08T09:35:34.529Z",
      "lastSeenAt": "2026-07-08T09:35:34.529Z",
      "visitCount": 1,
      "sessionCount": 1,
      "firstPage": "/",
      "lastPage": "/",
      "firstCountry": "IN",
      "firstRegion": "West Bengal",
      "firstCity": "Kolkata",
      "firstTimezone": "Asia/Kolkata",
      "lastCountry": "IN",
      "lastRegion": "West Bengal",
      "lastCity": "Kolkata",
      "lastTimezone": "Asia/Kolkata",
      "lastLatitude": "22.563",
      "lastLongitude": "88.363"
    },
    {
      "key": "b2475738a4130b8f0800151dfe5e29eb12c0354e44a5860e2de903928e0b9cf2",
      "firstSeenAt": "2026-07-08T03:34:07.131Z",
      "lastSeenAt": "2026-07-08T03:34:07.131Z",
      "visitCount": 1,
      "sessionCount": 1,
      "firstPage": "/",
      "lastPage": "/",
      "firstCountry": "BT",
      "firstRegion": "Chukha",
      "firstCity": "Phuntsholing",
      "firstTimezone": "Asia/Thimphu",
      "lastCountry": "BT",
      "lastRegion": "Chukha",
      "lastCity": "Phuntsholing",
      "lastTimezone": "Asia/Thimphu",
      "lastLatitude": "26.852",
      "lastLongitude": "89.388"
    },
    {
      "key": "79a16426ebe7dfcba7384175b8c0d489ac57e0fea647c9a64b8d6b724a4f086a",
      "firstSeenAt": "2026-07-07T08:19:18.946Z",
      "lastSeenAt": "2026-07-07T08:19:18.946Z",
      "visitCount": 1,
      "sessionCount": 1,
      "firstPage": "/",
      "lastPage": "/",
      "firstCountry": "IN",
      "firstRegion": "Gujarat",
      "firstCity": "Ahmedabad",
      "firstTimezone": "Asia/Kolkata",
      "lastCountry": "IN",
      "lastRegion": "Gujarat",
      "lastCity": "Ahmedabad",
      "lastTimezone": "Asia/Kolkata",
      "lastLatitude": "23.026",
      "lastLongitude": "72.587"
    },
    {
      "key": "9851625620a867873ecdf919bb7acb5a65a75faad52313e02ccf29ece83fe1f9",
      "firstSeenAt": "2026-07-06T05:56:05.569Z",
      "lastSeenAt": "2026-07-06T05:56:05.569Z",
      "visitCount": 1,
      "sessionCount": 1,
      "firstPage": "/",
      "lastPage": "/",
      "firstCountry": "IN",
      "firstRegion": "West Bengal",
      "firstCity": "Siliguri",
      "firstTimezone": "Asia/Kolkata",
      "lastCountry": "IN",
      "lastRegion": "West Bengal",
      "lastCity": "Siliguri",
      "lastTimezone": "Asia/Kolkata",
      "lastLatitude": "26.710",
      "lastLongitude": "88.429"
    },
    {
      "key": "827beb1bc321a59347508fe8c584b08c5f8682934295cfd9960dcfd612c85e71",
      "firstSeenAt": "2026-06-29T15:37:34.134Z",
      "lastSeenAt": "2026-07-06T05:03:57.247Z",
      "visitCount": 2,
      "sessionCount": 2,
      "firstPage": "/",
      "lastPage": "/",
      "firstCountry": "BT",
      "firstRegion": "Chukha",
      "firstCity": "Phuntsholing",
      "firstTimezone": "Asia/Thimphu",
      "lastCountry": "BT",
      "lastRegion": "Thimphu District",
      "lastCity": "Thimphu",
      "lastTimezone": "Asia/Thimphu",
      "lastLatitude": "27.466",
      "lastLongitude": "89.642"
    },
    {
      "key": "919b58ddc59220c7c44cea3936393b70b4643202edc2fb5a47535c060d0976d1",
      "firstSeenAt": "2026-07-06T00:46:53.294Z",
      "lastSeenAt": "2026-07-06T00:46:53.294Z",
      "visitCount": 1,
      "sessionCount": 1,
      "firstPage": "/",
      "lastPage": "/",
      "firstCountry": "JP",
      "firstRegion": "Osaka",
      "firstCity": "Osaka",
      "firstTimezone": "Asia/Tokyo",
      "lastCountry": "JP",
      "lastRegion": "Osaka",
      "lastCity": "Osaka",
      "lastTimezone": "Asia/Tokyo",
      "lastLatitude": "34.694",
      "lastLongitude": "135.501"
    },
    {
      "key": "3cdaf5cf0afef2e6281108097c8b489d47e376652fa71ff483f4ae93e5b4af01",
      "firstSeenAt": "2026-07-05T06:53:29.625Z",
      "lastSeenAt": "2026-07-05T06:53:29.625Z",
      "visitCount": 1,
      "sessionCount": 1,
      "firstPage": "/",
      "lastPage": "/",
      "firstCountry": "IN",
      "firstRegion": "Gujarat",
      "firstCity": "Ahmedabad",
      "firstTimezone": "Asia/Kolkata",
      "lastCountry": "IN",
      "lastRegion": "Gujarat",
      "lastCity": "Ahmedabad",
      "lastTimezone": "Asia/Kolkata",
      "lastLatitude": "23.026",
      "lastLongitude": "72.587"
    },
    {
      "key": "c6792c23ea45b5a3dd6d9cafce3a638d6f49f887b50a6e571b17325b764b920a",
      "firstSeenAt": "2026-07-03T11:11:49.185Z",
      "lastSeenAt": "2026-07-05T06:51:02.870Z",
      "visitCount": 2,
      "sessionCount": 2,
      "firstPage": "/",
      "lastPage": "/",
      "firstCountry": "IN",
      "firstRegion": "West Bengal",
      "firstCity": "Siliguri",
      "firstTimezone": "Asia/Kolkata",
      "lastCountry": "IN",
      "lastRegion": "West Bengal",
      "lastCity": "Siliguri",
      "lastTimezone": "Asia/Kolkata",
      "lastLatitude": "26.710",
      "lastLongitude": "88.429"
    },
    {
      "key": "b1b619c938c67719f1b3378b22a8db92c826875a566e8fcbce950fd38154e527",
      "firstSeenAt": "2026-07-05T01:00:11.905Z",
      "lastSeenAt": "2026-07-05T01:00:11.905Z",
      "visitCount": 1,
      "sessionCount": 1,
      "firstPage": "/",
      "lastPage": "/",
      "firstCountry": "JP",
      "firstRegion": "Kyoto",
      "firstCity": "Kyoto",
      "firstTimezone": "Asia/Tokyo",
      "lastCountry": "JP",
      "lastRegion": "Kyoto",
      "lastCity": "Kyoto",
      "lastTimezone": "Asia/Tokyo",
      "lastLatitude": "35.021",
      "lastLongitude": "135.754"
    },
    {
      "key": "dc881f6c4b74574d8c336aac8327b44a9c2db7d5e5f020d18edad4bae9f7413b",
      "firstSeenAt": "2026-07-03T11:11:10.321Z",
      "lastSeenAt": "2026-07-03T12:53:31.473Z",
      "visitCount": 3,
      "sessionCount": 3,
      "firstPage": "/",
      "lastPage": "/",
      "firstCountry": "NP",
      "firstRegion": "Koshi",
      "firstCity": "Bhadrapur",
      "firstTimezone": "Asia/Kathmandu",
      "lastCountry": "NP",
      "lastRegion": "Koshi",
      "lastCity": "Bhadrapur",
      "lastTimezone": "Asia/Kathmandu",
      "lastLatitude": "26.544",
      "lastLongitude": "88.094"
    },
    {
      "key": "bebca154a3a536ec9d5a84a96d38707d32092a8dc5ce525498618c68fe942cdb",
      "firstSeenAt": "2026-07-03T12:01:48.133Z",
      "lastSeenAt": "2026-07-03T12:01:48.133Z",
      "visitCount": 1,
      "sessionCount": 1,
      "firstPage": "/",
      "lastPage": "/",
      "firstCountry": "IN",
      "firstRegion": "West Bengal",
      "firstCity": "Kolkata",
      "firstTimezone": "Asia/Kolkata",
      "lastCountry": "IN",
      "lastRegion": "West Bengal",
      "lastCity": "Kolkata",
      "lastTimezone": "Asia/Kolkata",
      "lastLatitude": "22.563",
      "lastLongitude": "88.363"
    },
    {
      "key": "12469214a1ba70662da02f34d101138266b0c6cd7e7db0d0a90e7ff59e4038c2",
      "firstSeenAt": "2026-07-02T14:44:18.771Z",
      "lastSeenAt": "2026-07-02T14:44:18.771Z",
      "visitCount": 1,
      "sessionCount": 1,
      "firstPage": "/",
      "lastPage": "/",
      "firstCountry": "BT",
      "firstRegion": "Thimphu District",
      "firstCity": "Thimphu",
      "firstTimezone": "Asia/Thimphu",
      "lastCountry": "BT",
      "lastRegion": "Thimphu District",
      "lastCity": "Thimphu",
      "lastTimezone": "Asia/Thimphu",
      "lastLatitude": "27.466",
      "lastLongitude": "89.642"
    },
    {
      "key": "9a8b3d421696c31be282a8972ec3889ab3caec7d9ae3bbfd7aea69fad3069300",
      "firstSeenAt": "2026-06-30T03:41:36.187Z",
      "lastSeenAt": "2026-06-30T03:41:36.187Z",
      "visitCount": 1,
      "sessionCount": 1,
      "firstPage": "/",
      "lastPage": "/",
      "firstCountry": "HK",
      "firstRegion": "",
      "firstCity": "Kwai Chung",
      "firstTimezone": "Asia/Hong_Kong",
      "lastCountry": "HK",
      "lastRegion": "",
      "lastCity": "Kwai Chung",
      "lastTimezone": "Asia/Hong_Kong",
      "lastLatitude": "22.368",
      "lastLongitude": "114.139"
    },
    {
      "key": "b0284a26c620594d2e378b36426033ec46df6320f9913b51f0b3b99580e08111",
      "firstSeenAt": "2026-06-29T07:31:35.475Z",
      "lastSeenAt": "2026-06-29T07:31:35.475Z",
      "visitCount": 1,
      "sessionCount": 1,
      "firstPage": "/",
      "lastPage": "/",
      "firstCountry": "IN",
      "firstRegion": "Andhra Pradesh",
      "firstCity": "Nellore",
      "firstTimezone": "Asia/Kolkata",
      "lastCountry": "IN",
      "lastRegion": "Andhra Pradesh",
      "lastCity": "Nellore",
      "lastTimezone": "Asia/Kolkata",
      "lastLatitude": "14.450",
      "lastLongitude": "79.987"
    },
    {
      "key": "bb78929916e5be3cd7ab07dbade0881c60f2e59ad2286144ded39b42d301b973",
      "firstSeenAt": "2026-06-29T07:23:38.101Z",
      "lastSeenAt": "2026-06-29T07:23:38.101Z",
      "visitCount": 1,
      "sessionCount": 1,
      "firstPage": "/",
      "lastPage": "/",
      "firstCountry": "BT",
      "firstRegion": "Chukha",
      "firstCity": "Phuntsholing",
      "firstTimezone": "Asia/Thimphu",
      "lastCountry": "BT",
      "lastRegion": "Chukha",
      "lastCity": "Phuntsholing",
      "lastTimezone": "Asia/Thimphu",
      "lastLatitude": "26.852",
      "lastLongitude": "89.388"
    },
    {
      "key": "aa94cdfd826fe27a05fdae8ed318aad197651c1286f3dcb58d2d52d7202a367e",
      "firstSeenAt": "2026-06-29T04:50:46.468Z",
      "lastSeenAt": "2026-06-29T04:50:46.468Z",
      "visitCount": 1,
      "sessionCount": 1,
      "firstPage": "/",
      "lastPage": "/",
      "firstCountry": "BT",
      "firstRegion": "Chukha",
      "firstCity": "Phuntsholing",
      "firstTimezone": "Asia/Thimphu",
      "lastCountry": "BT",
      "lastRegion": "Chukha",
      "lastCity": "Phuntsholing",
      "lastTimezone": "Asia/Thimphu",
      "lastLatitude": "26.852",
      "lastLongitude": "89.388"
    },
    {
      "key": "827495754da41fb7e5980c2b7bda7f6a5b1361b7dc070b8db86ce9e5193a377c",
      "firstSeenAt": "2026-06-29T04:35:14.047Z",
      "lastSeenAt": "2026-06-29T04:35:14.047Z",
      "visitCount": 1,
      "sessionCount": 1,
      "firstPage": "/",
      "lastPage": "/",
      "firstCountry": "BT",
      "firstRegion": "Thimphu District",
      "firstCity": "Thimphu",
      "firstTimezone": "Asia/Thimphu",
      "lastCountry": "BT",
      "lastRegion": "Thimphu District",
      "lastCity": "Thimphu",
      "lastTimezone": "Asia/Thimphu",
      "lastLatitude": "27.466",
      "lastLongitude": "89.642"
    },
    {
      "key": "a04f3e291ce494474e447f8f67030dd1d21c47de302ea75457c2063312d78d27",
      "firstSeenAt": "2026-06-29T04:12:04.266Z",
      "lastSeenAt": "2026-06-29T04:12:04.266Z",
      "visitCount": 1,
      "sessionCount": 1,
      "firstPage": "/",
      "lastPage": "/",
      "firstCountry": "IN",
      "firstRegion": "West Bengal",
      "firstCity": "Siliguri",
      "firstTimezone": "Asia/Kolkata",
      "lastCountry": "IN",
      "lastRegion": "West Bengal",
      "lastCity": "Siliguri",
      "lastTimezone": "Asia/Kolkata",
      "lastLatitude": "26.710",
      "lastLongitude": "88.429"
    },
    {
      "key": "1ef74479998a74e0c613c443e999671f37c9835aaa08299aaade33d9bcd15242",
      "firstSeenAt": "2026-06-28T18:28:10.984Z",
      "lastSeenAt": "2026-06-28T18:28:10.984Z",
      "visitCount": 1,
      "sessionCount": 1,
      "firstPage": "/",
      "lastPage": "/",
      "firstCountry": "MY",
      "firstRegion": "Johor",
      "firstCity": "Johor Bahru",
      "firstTimezone": "Asia/Kuala_Lumpur",
      "lastCountry": "MY",
      "lastRegion": "Johor",
      "lastCity": "Johor Bahru",
      "lastTimezone": "Asia/Kuala_Lumpur",
      "lastLatitude": "1.466",
      "lastLongitude": "103.758"
    },
    {
      "key": "80ee21b2a9c915ae9704ee55d936041612f317932be75863c2f156eded741f53",
      "firstSeenAt": "2026-06-27T13:25:26.670Z",
      "lastSeenAt": "2026-06-27T13:25:26.670Z",
      "visitCount": 1,
      "sessionCount": 1,
      "firstPage": "/",
      "lastPage": "/",
      "firstCountry": "MY",
      "firstRegion": "Sarawak",
      "firstCity": "Kuching",
      "firstTimezone": "Asia/Kuching",
      "lastCountry": "MY",
      "lastRegion": "Sarawak",
      "lastCity": "Kuching",
      "lastTimezone": "Asia/Kuching",
      "lastLatitude": "1.548",
      "lastLongitude": "110.368"
    },
    {
      "key": "5d7288c1a832cc20cda6b1a0003b41199232ce26e1671ea7a26ad6d72ec28e0a",
      "firstSeenAt": "2026-06-26T17:59:10.343Z",
      "lastSeenAt": "2026-06-26T19:46:36.351Z",
      "visitCount": 2,
      "sessionCount": 2,
      "firstPage": "/",
      "lastPage": "/",
      "firstCountry": "BT",
      "firstRegion": "Thimphu District",
      "firstCity": "Thimphu",
      "firstTimezone": "Asia/Thimphu",
      "lastCountry": "BT",
      "lastRegion": "Thimphu District",
      "lastCity": "Thimphu",
      "lastTimezone": "Asia/Thimphu",
      "lastLatitude": "27.466",
      "lastLongitude": "89.642"
    },
    {
      "key": "a4e073baee6a65d6f129ed47f7fef8aaca6185f47927a0d363c3c8813c6dcb7c",
      "firstSeenAt": "2026-06-26T18:02:25.104Z",
      "lastSeenAt": "2026-06-26T18:02:25.104Z",
      "visitCount": 1,
      "sessionCount": 1,
      "firstPage": "/",
      "lastPage": "/",
      "firstCountry": "IN",
      "firstRegion": "West Bengal",
      "firstCity": "Siliguri",
      "firstTimezone": "Asia/Kolkata",
      "lastCountry": "IN",
      "lastRegion": "West Bengal",
      "lastCity": "Siliguri",
      "lastTimezone": "Asia/Kolkata",
      "lastLatitude": "26.710",
      "lastLongitude": "88.429"
    }
  ],
  "identifiedVisits": 56,
  "uniqueVisitors": 35,
  "returningVisitors": 8,
  "repeatVisits": 21,
  "legacyVisits": 54
}
